City_ID,City,Lat,Lng,Max Temp,Humidity,Cloudiness,Wind Speed,Country,Date
0,ixtapa,20.7,-105.2,33.89,21,98,3.89,MX,1680544315
1,cochrane,51.1834,-114.4687,0.83,62,100,3.6,CA,1680544315
2,sena madureira,-9.0656,-68.6569,29.41,67,94,2.13,BR,1680544315
3,mataura,-46.1927,168.8643,14.71,85,92,0.73,NZ,1680544315
4,ushuaia,-54.8,-68.3,16.81,36,20,7.2,AR,1680544128
5,meridian,43.6121,-116.3915,4.73,57,0,10.29,US,1680544315
6,kodiak,57.79,-152.4072,-0.27,93,100,1.54,US,1680544316
7,hobart,-42.8794,147.3294,12.25,88,40,2.57,AU,1680544316
8,aswan,24.0934,32.907,30.61,7,0,1.54,EG,1680544202
9,steinbach,50.1667,8.5667,6.73,46,0,7.72,DE,1680544316
10,kirakira,-10.4544,161.9205,26.69,84,71,2.97,SB,1680544181
11,yerbogachen,61.2767,108.0108,-5.44,94,100,5.64,RU,1680544316
12,punta arenas,-53.15,-70.9167,20.06,30,75,11.83,CL,1680544317
13,naze,28.3667,129.4833,18.51,62,93,9.48,JP,1680544317
14,tiksi,71.6872,128.8694,-13.64,96,56,3.72,RU,1680544317
15,lasa,46.6166,10.7002,8.49,91,30,3.23,IT,1680544317
16,hermanus,-34.4187,19.2345,16.0,81,80,1.99,ZA,1680544318
17,soyo,-6.1349,12.3689,27.7,78,97,3.87,AO,1680544318
18,yellowknife,62.456,-114.3525,-12.71,66,40,1.03,CA,1680544020
19,sovetskiy,61.3614,63.5842,-1.23,96,100,4.94,RU,1680544318
20,hovd,48.0056,91.6419,-8.44,21,4,2.57,MN,1680544318
21,mucurapo,10.6667,-61.5333,33.34,58,17,6.35,TT,1680544318
22,jamestown,42.097,-79.2353,15.8,44,0,5.14,US,1680543936
23,nanortalik,60.1432,-45.2371,2.68,87,100,1.53,GL,1680544319
24,vestmanna,62.1564,-7.1664,7.51,81,100,7.72,FO,1680544319
25,mahon,39.8885,4.2658,13.31,62,20,7.2,ES,1680544319
26,oussouye,12.485,-16.5469,34.1,38,32,4.36,SN,1680544319
27,avarua,-21.2078,-159.775,25.03,69,20,2.57,CK,1680544319
28,new norfolk,-42.7826,147.0587,12.06,73,100,1.31,AU,1680544128
29,butaritari,3.0707,172.7902,27.73,80,90,8.31,KI,1680544320
30,nome,64.5011,-165.4064,-15.96,92,0,0.0,US,1680544166
31,oktyabrskoye,43.0645,44.7417,12.08,47,75,2.0,RU,1680544320
32,vaini,-21.2,-175.2,24.09,88,20,3.6,TO,1680544320
33,cap malheureux,-19.9842,57.6142,26.37,73,61,1.34,MU,1680544320
34,deputatskiy,69.3,139.9,-19.26,99,82,1.87,RU,1680544320
35,nuuk,64.1835,-51.7216,-0.66,64,60,6.17,GL,1680544321
36,antalaha,-14.9003,50.2788,24.87,88,28,1.95,MG,1680544321
37,codrington,-38.2667,141.9667,10.9,92,49,2.09,AU,1680544321
38,svetlaya,46.5389,138.3297,4.63,81,100,2.53,RU,1680544321
39,vvedenskoye,55.4753,65.0847,1.55,83,3,2.72,RU,1680544321
40,lazaro cardenas,17.9583,-102.2,29.74,45,17,4.05,MX,1680544322
41,nishihara,26.1842,127.7558,19.6,64,40,7.2,JP,1680544322
42,kavieng,-2.5744,150.7967,27.41,76,97,2.73,PG,1680544194
43,atuona,-9.8,-139.0333,26.44,83,99,6.98,PF,1680544323
44,makaryev,57.8797,43.8069,7.37,88,100,2.94,RU,1680544323
45,carnarvon,-24.8667,113.6333,24.35,74,95,5.47,AU,1680544323
46,herat,34.5,62.0,13.61,27,2,3.94,AF,1680544323
47,bethel,41.3712,-73.414,14.12,41,20,5.66,US,1680544090
48,saint-philippe,-21.3585,55.7679,23.77,83,100,3.64,RE,1680544324
49,vaitape,-16.5167,-151.75,27.63,69,60,1.87,PF,1680544324
50,alofi,-19.0595,-169.9187,24.94,94,75,4.12,NU,1680544324
51,tokur,53.1333,132.9,-7.19,77,96,4.63,RU,1680544325
52,arraial do cabo,-22.9661,-42.0278,26.98,61,40,3.6,BR,1680544126
53,hobyo,5.3505,48.5268,28.71,71,4,6.6,SO,1680544325
54,kaitangata,-46.2817,169.8464,10.58,79,98,2.7,NZ,1680544325
55,laguna,38.421,-121.4238,11.83,42,0,4.12,US,1680544326
56,cayenne,4.9333,-52.3333,30.02,58,20,5.66,GF,1680544245
57,buluang,13.3068,123.3425,23.29,93,22,1.81,PH,1680544326
58,lebu,-37.6167,-73.65,15.07,64,0,8.2,CL,1680544327
59,havre-saint-pierre,50.2334,-63.5986,-3.8,68,0,10.8,CA,1680544327
60,acajutla,13.5928,-89.8275,30.62,53,40,5.04,SV,1680544328
61,maragogi,-9.0122,-35.2225,28.17,65,9,4.5,BR,1680544191
62,mahebourg,-20.4081,57.7,26.25,78,40,3.09,MU,1680544123
63,vanimo,-2.6741,141.3028,24.95,89,99,1.51,PG,1680544328
64,thompson,55.7435,-97.8558,-15.91,66,20,2.06,CA,1680544329
65,umba,66.6871,34.3429,-11.96,97,19,2.0,RU,1680544329
66,bredasdorp,-34.5322,20.0403,17.24,75,88,2.28,ZA,1680544112
67,bonavista,48.6499,-53.1147,1.44,74,16,8.82,CA,1680544330
68,komsomolskiy,40.4272,71.7189,15.4,55,75,6.17,UZ,1680544330
69,samarai,-10.6167,150.6667,28.35,77,100,3.91,PG,1680544330
70,mbandaka,0.0487,18.2603,25.9,73,58,1.57,CD,1680544331
71,puerto ayora,-0.7393,-90.3518,31.98,88,78,2.68,EC,1680544104
72,barrow,71.2906,-156.7887,-16.99,85,100,5.66,US,1680544117
73,ankang,32.68,109.0172,11.59,87,100,0.65,CN,1680544332
74,katsina,12.9894,7.6006,34.94,10,0,5.14,NG,1680544332
75,tuktoyaktuk,69.4541,-133.0374,-24.0,77,20,1.54,CA,1680544332
76,portland,45.5234,-122.6762,6.24,87,100,3.09,US,1680544156
77,inuvik,68.3499,-133.7218,-18.44,74,20,2.06,CA,1680544332
78,kuvandyk,51.4781,57.3552,5.85,69,83,3.44,RU,1680544332
79,nagaoka,37.45,138.85,6.7,79,0,1.53,JP,1680544333
80,saldanha,-33.0117,17.9442,19.03,85,40,4.32,ZA,1680544333
81,east london,-33.0153,27.9116,20.39,71,67,10.5,ZA,1680544334
82,ostrovnoy,68.0531,39.5131,-7.76,86,24,6.78,RU,1680544334
83,sola,-13.8833,167.55,28.19,75,77,7.6,VU,1680544334
84,norman wells,65.282,-126.8329,-9.98,85,75,2.06,CA,1680544334
85,bengkulu,-3.8004,102.2655,23.9,91,100,2.54,ID,1680544334
86,pevek,69.7008,170.3133,-33.07,99,83,3.1,RU,1680544334
87,bluff,-46.6,168.3333,14.89,78,62,6.15,NZ,1680544335
88,walvis bay,-22.9575,14.5053,21.53,64,5,5.66,NA,1680544335
89,rikitea,-23.1203,-134.9692,26.54,82,80,5.87,PF,1680544087
90,kapaa,22.0752,-159.319,22.18,91,100,6.17,US,1680544335
91,bridlington,54.0831,-0.1919,7.96,78,47,6.11,GB,1680544336
92,preobrazheniye,42.9019,133.9064,7.18,74,92,4.87,RU,1680544296
93,hilo,19.7297,-155.09,22.01,94,75,2.57,US,1680544100
94,santa clara,22.4,-79.9667,30.81,45,20,3.6,CU,1680544294
95,dubai,25.2582,55.3047,22.14,60,0,5.14,AE,1680544125
96,port hedland,-20.3167,118.5667,27.03,83,25,0.0,AU,1680544336
97,visnes,59.3556,5.2242,7.68,65,20,3.09,NO,1680544336
98,busselton,-33.65,115.3333,14.12,86,2,2.61,AU,1680544097
99,vestmannaeyjar,63.4427,-20.2734,8.55,93,100,12.86,IS,1680544337
100,longyearbyen,78.2186,15.6401,-12.09,79,75,9.26,SJ,1680544337
101,airai,-8.9266,125.4092,14.53,92,100,0.71,TL,1680544337
102,port elizabeth,-33.918,25.5701,19.5,82,0,11.83,ZA,1680544337
103,beira,-19.8436,34.8389,24.05,88,0,2.68,MZ,1680544337
104,cape town,-33.9258,18.4232,18.95,80,20,2.57,ZA,1680544134
105,santa cecilia,-26.9608,-50.4269,25.04,38,5,0.96,BR,1680544338
106,mar del plata,-38.0023,-57.5575,20.01,71,100,4.12,AR,1680544207
107,tacna,-18.0056,-70.2483,27.11,51,20,3.09,PE,1680544338
108,nueve de julio,-35.4444,-60.8831,22.76,67,98,1.34,AR,1680544339
109,sisimiut,66.9395,-53.6735,-7.68,69,3,5.26,GL,1680544339
110,sulangan,11.1373,123.7228,27.31,77,82,4.96,PH,1680544339
111,healdsburg,38.6105,-122.8692,12.28,42,0,5.66,US,1680544338
112,sandnessjoen,66.0217,12.6316,5.23,77,75,5.14,NO,1680544339
113,brae,60.3964,-1.353,6.09,78,61,8.18,GB,1680544340
114,hithadhoo,-0.6,73.0833,28.28,72,63,3.7,MV,1680544089
115,tigil,57.8,158.6667,-9.89,96,100,1.02,RU,1680544340
116,omboue,-1.5746,9.2618,26.05,84,93,3.09,GA,1680544266
117,chokurdakh,70.6333,147.9167,-13.96,95,100,4.61,RU,1680544340
118,katsuura,35.1333,140.3,10.33,62,0,5.01,JP,1680544127
119,saint george,37.1041,-113.5841,16.25,40,100,6.71,US,1680544182
120,nikolskoye,59.7035,30.7861,-0.05,94,99,4.29,RU,1680544136
121,umm kaddadah,13.6017,26.6876,28.36,11,89,5.15,SD,1680544341
122,khatanga,71.9667,102.5,-22.71,99,100,2.89,RU,1680544136
123,tasiilaq,65.6145,-37.6368,-2.91,82,100,2.74,GL,1680544341
124,coahuayana,18.7333,-103.6833,32.68,35,53,3.47,MX,1680544342
125,port macquarie,-31.4333,152.9167,15.5,93,34,2.42,AU,1680544342
126,georgetown,5.4112,100.3354,25.97,89,20,0.0,MY,1680544114
127,cidreira,-30.1811,-50.2056,23.58,63,10,5.23,BR,1680544099
128,peruibe,-24.32,-46.9983,25.1,66,54,2.75,BR,1680544343
129,moses lake,47.1301,-119.2781,7.2,57,20,3.6,US,1680544343
130,puerto del rosario,28.5004,-13.8627,22.86,49,0,9.77,ES,1680544343
131,hamilton,39.1834,-84.5333,19.01,63,100,1.34,US,1680544113
132,lagoa,39.05,-27.9833,14.58,69,94,6.02,PT,1680544343
133,albany,42.6001,-73.9662,14.03,30,31,2.68,US,1680543766
134,alice springs,-23.7,133.8833,16.75,88,40,0.0,AU,1680544343
135,tessalit,20.1986,1.0114,31.19,5,4,4.47,ML,1680544343
136,kumluca,36.3703,30.2869,15.58,70,51,2.42,TR,1680544344
137,thung song,8.1645,99.6804,23.37,92,82,1.1,TH,1680544344
138,sioux lookout,50.1001,-91.917,-6.96,63,40,3.6,CA,1680544344
139,qaanaaq,77.484,-69.3632,-21.49,73,3,0.98,GL,1680544093
140,tezu,27.9167,96.1667,16.65,78,89,2.38,IN,1680544345
141,saint-augustin,51.226,-58.6502,2.17,66,90,6.55,CA,1680544345
142,half moon bay,37.4636,-122.4286,12.73,52,0,8.75,US,1680544345
143,kutum,14.2,24.6667,26.57,12,44,3.1,SD,1680544241
144,chuy,-33.6971,-53.4616,18.12,74,100,1.01,UY,1680544158
145,krutikha,53.9599,81.2093,-1.18,63,70,2.78,RU,1680544346
146,te anau,-45.4167,167.7167,8.69,93,64,0.13,NZ,1680544346
147,verkhniy rohachyk,47.2505,34.338,8.3,89,99,3.88,UA,1680544346
148,provideniya,64.3833,-173.3,-14.32,97,92,3.32,RU,1680544347
149,praia da vitoria,38.7333,-27.0667,18.14,68,75,3.41,PT,1680544347
150,redding,40.5865,-122.3917,10.12,36,0,3.13,US,1680544237
151,coihaique,-45.5752,-72.0662,14.34,62,75,2.06,CL,1680544347
152,los llanos de aridane,28.6585,-17.9182,20.07,79,20,8.75,ES,1680544138
153,port hardy,50.6996,-127.4199,6.0,81,75,4.12,CA,1680544348
154,leningradskiy,69.3833,178.4167,-32.97,98,36,2.39,RU,1680544348
155,esso,55.9333,158.7,-12.18,98,82,2.83,RU,1680544349
156,caravelas,-17.7125,-39.2481,26.35,77,57,4.42,BR,1680544118
157,narsaq,60.9167,-46.05,10.12,91,100,3.46,GL,1680544186
158,mandleshwar,22.1833,75.6667,29.18,26,0,3.09,IN,1680544349
159,clyde river,70.4692,-68.5914,-22.87,77,0,2.57,CA,1680544350
160,alta floresta,-9.8756,-56.0861,29.9,70,40,1.03,BR,1680544350
161,klaksvik,62.2266,-6.589,8.51,88,100,10.73,FO,1680544350
162,port alfred,-33.5906,26.891,18.43,78,56,2.68,ZA,1680544351
163,lingao,19.9103,109.6859,23.72,87,2,3.96,CN,1680544351
164,shingu,33.7333,135.9833,13.41,76,96,1.13,JP,1680544351
165,cabo san lucas,22.8909,-109.9124,27.81,44,75,1.54,MX,1680544352
166,baoro,5.6667,15.9667,29.53,30,87,1.77,CF,1680544352
167,sur,22.5667,59.5289,24.38,56,4,1.87,OM,1680544352
168,san cristobal,7.7669,-72.225,28.1,42,90,3.69,VE,1680544352
169,caucaia,-3.7361,-38.6531,29.97,73,40,4.12,BR,1680544106
170,punta gorda,26.9298,-82.0454,31.21,65,20,5.14,US,1680544332
171,la asuncion,11.0333,-63.8628,26.86,70,0,8.08,VE,1680544353
172,waingapu,-9.6567,120.2641,25.22,86,100,0.62,ID,1680544353
173,svarstad,59.399,9.9698,7.78,96,99,0.32,NO,1680544353
174,kruisfontein,-34.0033,24.7314,18.27,85,14,6.86,ZA,1680544353
175,faanui,-16.4833,-151.75,27.61,69,59,1.85,PF,1680544353
176,isangel,-19.55,169.2667,26.0,86,35,2.9,VU,1680544353
177,guerrero negro,27.9769,-114.0611,16.26,67,97,9.39,MX,1680544110
178,rudnogorsk,57.2639,103.7519,-5.88,92,100,4.63,RU,1680544354
179,souillac,-20.5167,57.5167,26.21,78,40,3.09,MU,1680544354
180,skaudvile,55.4167,22.6167,-1.08,56,46,4.22,LT,1680544354
181,puerto escondido,15.85,-97.0667,30.93,56,98,4.57,MX,1680544354
182,luderitz,-26.6481,15.1594,18.06,71,0,9.61,NA,1680544354
183,castro,-24.7911,-50.0119,24.1,54,0,2.39,BR,1680544354
184,kyabe,9.4515,18.9449,34.24,13,50,0.98,TD,1680544355
185,itacare,-14.2775,-38.9967,28.21,67,47,4.78,BR,1680543860
186,bambanglipuro,-7.95,110.2833,23.7,90,100,2.87,ID,1680544355
187,whitehorse,60.7161,-135.0538,-3.83,63,75,2.06,CA,1680544207
188,tadine,-21.55,167.8833,25.24,86,86,3.0,NC,1680544355
189,bontang,0.1333,117.5,24.86,90,99,2.04,ID,1680544355
190,canaries,28.0,-15.5,19.66,53,20,12.86,ES,1680544355
191,beyneu,45.3167,55.2,12.0,54,100,3.6,KZ,1680544356
192,gornopravdinsk,60.05,69.9,0.75,96,100,2.77,RU,1680544356
193,grand gaube,-20.0064,57.6608,26.32,73,63,1.34,MU,1680544356
194,cockburn town,21.4612,-71.1419,26.98,65,40,5.14,TC,1680544169
195,merauke,-8.4667,140.3333,24.29,90,100,2.55,ID,1680544357
196,chumikan,54.7183,135.315,-4.25,92,100,3.88,RU,1680544357
197,kralendijk,12.15,-68.2667,29.99,62,75,8.75,BQ,1680544357
198,torbay,47.6666,-52.7314,1.99,70,75,11.83,CA,1680544112
199,port blair,11.6667,92.75,27.02,78,20,1.03,IN,1680544358
200,ostersund,63.1792,14.6357,1.25,93,0,1.54,SE,1680544358
201,lompoc,34.6391,-120.4579,13.9,52,20,9.26,US,1680544358
202,poum,-20.2333,164.0167,26.81,80,66,3.82,NC,1680544358
203,severo-kurilsk,50.6789,156.125,-0.09,92,70,5.61,RU,1680544359
204,inhambane,-23.865,35.3833,22.98,79,0,3.76,MZ,1680544359
205,viedma,-40.8135,-62.9967,23.19,31,0,3.61,AR,1680544359
206,saint-francois,46.4154,3.9054,7.69,75,100,4.63,FR,1680544359
207,canyon,34.9803,-101.9188,28.04,6,0,10.34,US,1680544359
208,san ramon,37.7799,-121.978,11.3,53,0,7.2,US,1680543908
209,la palma,33.8464,-118.0467,16.35,69,75,3.6,US,1680544360
210,surt,31.2089,16.5887,18.23,52,4,10.16,LY,1680544360
211,togur,58.3631,82.8265,1.03,99,100,2.26,RU,1680544360
212,upernavik,72.7868,-56.1549,-23.53,91,93,1.23,GL,1680544360
213,tinaquillo,9.9186,-68.3047,35.04,34,34,2.13,VE,1680544285
214,pontes e lacerda,-15.2261,-59.3353,28.33,75,17,1.38,BR,1680544360
215,constitucion,-35.3333,-72.4167,19.72,55,100,7.01,CL,1680544361
216,phayao,19.25,100.25,24.68,36,48,1.01,TH,1680544361
217,anadyr,64.75,177.4833,-24.72,77,20,5.0,RU,1680544361
218,ilulissat,69.2167,-51.1,-7.99,53,20,8.23,GL,1680544361
219,hamirpur,25.95,80.15,28.19,23,26,3.54,IN,1680544361
220,tanout,14.9709,8.8879,29.74,6,100,2.38,NE,1680544361
221,svetlyy,54.675,20.1347,1.03,63,12,7.7,RU,1680544361
222,sitka,57.0531,-135.33,2.94,81,20,1.54,US,1680544156
223,the valley,18.217,-63.0578,28.92,57,20,8.23,AI,1680544310
224,bargi,22.9833,79.8667,29.76,20,79,1.78,IN,1680544362
225,toora-khem,52.4675,96.11,-12.05,95,93,1.1,RU,1680544362
226,zuwarah,32.9312,12.082,17.75,50,3,4.17,LY,1680544362
227,tartagal,-22.5164,-63.8013,32.55,39,35,1.89,AR,1680543791
228,vytegra,61.0064,36.4481,-0.62,97,100,3.18,RU,1680544362
229,hasaki,35.7333,140.8333,7.34,52,0,5.18,JP,1680544100
230,pisco,-13.7,-76.2167,25.03,83,0,5.14,PE,1680544363
231,isiro,2.7739,27.616,18.69,98,68,2.03,CD,1680544363
232,fort nelson,58.8053,-122.7002,-3.23,63,75,4.12,CA,1680544174
233,kununurra,-15.7667,128.7333,23.99,88,53,0.0,AU,1680544364
234,homer,59.6425,-151.5483,1.13,68,100,2.24,US,1680544364
235,tierra blanca,14.5833,-88.5833,27.81,21,50,1.34,HN,1680544364
236,gunnedah,-30.9833,150.25,14.91,82,40,3.15,AU,1680544364
237,vila velha,-20.3297,-40.2925,27.97,61,75,5.14,BR,1680544161
238,ponta do sol,32.6667,-17.1,20.62,60,13,3.53,PT,1680544171
239,vinh,18.6667,105.6667,26.28,66,18,1.03,VN,1680544364
240,moron,-34.6534,-58.6198,22.11,75,94,0.67,AR,1680544365
241,dalbandin,28.8947,64.4101,22.16,11,19,3.52,PK,1680544365
242,esperance,-33.8667,121.9,18.81,84,97,2.99,AU,1680544365
243,vao,-22.6667,167.4833,25.37,82,16,4.92,NC,1680544365
244,mahajanga,-15.7167,46.3167,27.01,83,20,3.09,MG,1680544365
245,gat,31.61,34.7642,23.0,2,0,3.44,IL,1680544365
246,novaya ladoga,60.1025,32.3019,-1.83,93,99,5.24,RU,1680544366
247,luancheng,37.8792,114.6517,10.09,75,100,4.64,CN,1680544366
248,aklavik,68.2191,-135.0107,-13.19,88,50,1.69,CA,1680544366
249,berlevag,70.8578,29.0864,-1.0,69,100,12.35,NO,1680544366
250,khani,41.9563,42.9566,6.76,86,100,1.34,GE,1680544366
251,mitu,1.1983,-70.1733,28.11,76,62,1.25,CO,1680544366
252,marawi,7.9986,124.2928,19.86,95,60,0.64,PH,1680544367
253,omsukchan,62.5333,155.8,-28.37,100,57,1.57,RU,1680544367
254,mizan teferi,6.9833,35.5833,18.68,79,85,1.89,ET,1680544367
255,jamalpur,24.9167,89.9333,23.81,65,49,4.77,BD,1680544367
256,tecuala,22.3986,-105.4569,31.9,32,99,2.88,MX,1680544367
257,kyaikto,17.3,97.0167,27.26,69,26,2.64,MM,1680544368
258,itoman,26.1247,127.6694,20.01,62,75,7.2,JP,1680544368
259,ust-maya,60.4167,134.5333,-6.5,95,100,3.0,RU,1680544368
260,forio,40.7342,13.8646,14.68,64,96,4.92,IT,1680544084
261,mount gambier,-37.8333,140.7667,10.02,95,45,1.91,AU,1680544369
262,saint-louis,16.3333,-15.0,40.8,7,12,1.1,SN,1680544369
263,rafai,4.95,23.9167,25.98,55,64,1.63,CF,1680544369
264,sao filipe,14.8961,-24.4956,24.38,68,5,3.2,CV,1680544261
265,chalisgaon,20.4667,75.0167,28.82,31,0,5.19,IN,1680544369
266,jertih,5.7336,102.4897,23.42,93,97,1.88,MY,1680544370
267,makakilo city,21.3469,-158.0858,22.78,87,75,2.57,US,1680544370
268,talnakh,69.4865,88.3972,-30.65,98,56,3.76,RU,1680544196
269,burnie,-41.0667,145.9167,9.41,98,96,2.04,AU,1680544370
270,camacha,33.0833,-16.3333,17.68,77,40,10.29,PT,1680544371
271,tateyama,34.9833,139.8667,10.54,60,4,4.4,JP,1680544371
272,koksovyy,48.1967,40.5989,9.21,88,69,2.95,RU,1680544371
273,goya,-29.14,-59.2626,35.07,24,76,1.31,AR,1680544258
274,sharjah,25.3573,55.4033,22.16,56,0,5.14,AE,1680544178
275,ponta delgada,37.7333,-25.6667,15.4,67,20,4.12,PT,1680544372
276,tyukalinsk,55.8732,72.1967,-1.41,86,10,2.38,RU,1680544372
277,namatanai,-3.6667,152.4333,26.09,81,97,2.15,PG,1680544372
278,aripuana,-9.1667,-60.6333,26.96,81,70,1.99,BR,1680544372
279,olafsvik,64.8945,-23.7142,5.54,88,100,10.17,IS,1680544372
280,dikson,73.5069,80.5464,-25.82,99,100,4.4,RU,1680544373
281,saint-pierre,-21.3393,55.4781,23.82,83,40,2.06,RE,1680544373
282,salalah,17.0151,54.0924,29.05,74,20,1.03,OM,1680544373
283,cherskiy,68.75,161.3,-25.11,90,56,3.46,RU,1680544373
284,coquimbo,-29.9533,-71.3436,17.85,88,75,5.14,CL,1680544059
285,bambous virieux,-20.3428,57.7575,26.23,78,40,3.09,MU,1680544374
286,praia,14.9215,-23.5087,32.3,14,0,5.66,CV,1680544374
287,tual,-5.6667,132.75,27.51,78,100,4.33,ID,1680544338
288,stillwater,36.1156,-97.0584,28.95,39,0,6.17,US,1680544218
289,sidrolandia,-20.9319,-54.9614,30.6,44,1,2.54,BR,1680544374
290,zyryanka,65.75,150.85,-21.43,93,20,3.54,RU,1680544374
291,kanonji,34.1167,133.65,9.2,78,12,2.07,JP,1680544374
292,itarema,-2.9248,-39.9167,28.02,73,77,2.44,BR,1680544375
293,maamba,-17.3667,27.15,21.26,72,100,1.48,ZM,1680544375
294,ribeira grande,38.5167,-28.7,17.22,63,20,6.17,PT,1680544375
295,raudeberg,61.9875,5.1352,5.53,71,91,8.47,NO,1680544375
296,honningsvag,70.9821,25.9704,-0.14,69,100,8.23,NO,1680544295
297,fayaoue,-20.65,166.5333,27.12,80,92,4.9,NC,1680544376
298,necochea,-38.5473,-58.7368,21.51,54,75,3.79,AR,1680544376
299,barao de melgaco,-16.1944,-55.9675,33.63,40,14,2.25,BR,1680544376
300,vardo,70.3705,31.1107,-1.01,69,100,14.92,NO,1680544376
301,meulaboh,4.1363,96.1285,24.77,87,96,1.76,ID,1680544376
302,enshi,30.3,109.4833,17.13,95,62,1.78,CN,1680544376
303,smithers,54.7804,-127.1743,-1.82,64,75,2.06,CA,1680544376
304,yar-sale,66.8333,70.8333,-24.09,99,21,4.03,RU,1680544186
305,katete,-0.7818,29.7544,16.81,97,99,1.35,UG,1680544377
306,vila franca do campo,37.7167,-25.4333,15.23,61,46,2.2,PT,1680544377
307,qaqortoq,60.7167,-46.0333,3.04,91,100,2.41,GL,1680544377
308,shimoda,34.6667,138.95,10.58,66,3,4.49,JP,1680544377
309,sorland,67.667,12.6934,3.92,80,52,7.12,NO,1680544155
310,rapid valley,44.0625,-103.1463,4.77,54,100,3.13,US,1680544326
311,pimentel,-6.8367,-79.9342,30.16,66,75,1.54,PE,1680544378
312,tiznit,29.5833,-9.5,18.85,55,0,2.94,MA,1680544378
313,lorengau,-2.0226,147.2712,26.6,78,96,0.5,PG,1680544378
314,mogadishu,2.0371,45.3438,28.3,75,56,5.6,SO,1680544378
315,atasu,48.6814,71.6433,1.73,49,1,7.17,KZ,1680544378
316,north bend,43.4065,-124.2243,5.51,92,75,3.6,US,1680544379
317,johnstown,40.3267,-78.922,20.9,32,0,5.66,US,1680544379
318,abadan,30.3392,48.3043,20.97,46,0,3.09,IR,1680544379
319,warrnambool,-38.3833,142.4833,12.41,88,61,1.85,AU,1680544379
320,san patricio,28.017,-97.5169,32.31,52,74,7.09,US,1680544380
321,la sarre,48.8002,-79.1996,-0.13,100,100,2.54,CA,1680544310
322,rawson,-43.3002,-65.1023,20.7,32,0,1.65,AR,1680544380
323,saskylakh,71.9167,114.0833,-20.47,98,98,4.68,RU,1680544380
324,faya,18.3851,42.4509,17.06,61,67,1.96,SA,1680544200
325,mecca,21.4267,39.8261,25.54,34,7,1.93,SA,1680544162
326,traiguen,-38.25,-72.6833,21.66,23,0,4.94,CL,1680544380
327,concordia,-31.393,-58.0209,22.04,64,75,3.6,AR,1680544024
328,mount isa,-20.7333,139.5,21.87,28,72,3.6,AU,1680544381
329,ogaminana,7.5946,6.2248,28.95,57,93,5.48,NG,1680544381
330,uirauna,-6.5183,-38.4122,31.03,49,48,1.32,BR,1680544381
331,mareeba,-17.0,145.4333,21.36,95,92,0.96,AU,1680544382
332,tchibanga,-2.85,11.0333,23.94,92,100,0.58,GA,1680544382
333,twentynine palms,34.1356,-116.0542,15.07,43,11,4.02,US,1680544382
334,hounde,11.5,-3.5167,37.51,10,9,2.86,BF,1680544382
335,victoria,22.2855,114.1577,22.76,94,97,7.14,HK,1680544194
336,sistranda,63.7256,8.834,3.98,92,100,10.5,NO,1680544382
337,chodziez,52.995,16.9198,1.79,55,94,4.43,PL,1680544383
338,provost,52.3501,-110.2683,-8.75,87,100,2.52,CA,1680544383
339,grand baie,-20.0182,57.5802,26.36,73,60,1.34,MU,1680544383
340,geraldton,-28.7667,114.6,20.23,83,54,4.12,AU,1680544186
341,tianpeng,30.9866,103.9393,17.26,92,100,0.97,CN,1680544383
342,vilani,56.5525,26.9245,-2.17,80,99,3.31,LV,1680544384
343,la rioja,42.25,-2.5,10.88,61,23,2.09,ES,1680544139
344,tommot,58.9564,126.2925,-9.53,93,100,4.33,RU,1680544385
345,garowe,8.4054,48.4845,27.5,63,69,8.64,SO,1680544385
346,kuusamo,65.9667,29.1833,-3.98,46,0,2.57,FI,1680544385
347,bourg-en-bresse,46.1667,5.1667,9.05,62,29,4.54,FR,1680544385
348,marzuq,14.4,46.4667,24.08,66,89,2.78,YE,1680544385
349,kimparana,12.8347,-4.9244,37.42,5,52,4.19,ML,1680544386
350,manyana,-23.4,21.7167,24.14,35,44,1.36,BW,1680544386
351,yumen,40.2833,97.2,3.74,30,100,7.1,CN,1680544386
352,saint paul,44.9444,-93.0933,6.27,61,0,3.6,US,1680543898
353,idritsa,56.3316,28.8988,-1.88,96,100,3.05,RU,1680544387
354,vagur,61.4732,-6.8119,7.46,84,100,11.04,FO,1680544387
355,puri,19.8,85.85,27.29,88,14,7.77,IN,1680544387
356,male,4.1748,73.5089,28.97,79,20,2.06,MV,1680544387
357,calabozo,8.9242,-67.4293,36.58,27,7,3.87,VE,1680544388
358,micheweni,-4.9667,39.8333,27.57,79,65,4.31,TZ,1680544388
359,quatre cocos,-20.2078,57.7625,26.16,80,60,3.78,MU,1680544388
360,gazojak,41.1875,61.4036,13.74,32,79,5.78,TM,1680544388
361,jardim,-21.4803,-56.1381,32.08,42,0,2.71,BR,1680544388
362,ahuimanu,21.4447,-157.8378,23.44,89,75,3.6,US,1680544389
363,kibala,9.1104,18.3463,36.97,23,0,1.54,TD,1680544389
364,loandjili,-4.7561,11.8578,27.41,81,98,2.5,CG,1680544389
365,benjamin aceval,-24.9667,-57.5667,33.08,31,0,3.67,PY,1680544389
366,nelson bay,-32.7167,152.15,18.89,97,95,1.34,AU,1680544257
367,gaya,24.7833,85.0,26.32,27,5,1.33,IN,1680544125
368,ewa beach,21.3156,-158.0072,23.57,86,40,2.57,US,1680544390
369,snasa,64.2457,12.3778,1.67,99,100,1.68,NO,1680544390
370,namibe,-15.1961,12.1522,24.39,70,59,5.27,AO,1680544390
371,sao joao da barra,-21.6403,-41.0511,28.05,64,100,5.75,BR,1680544391
372,itamarandiba,-17.8572,-42.8589,23.17,69,99,1.65,BR,1680544391
373,amapa,1.0,-52.0,29.82,53,87,1.94,BR,1680544392
374,traverse city,44.7631,-85.6206,12.22,33,100,4.63,US,1680544261
375,paraiso,9.8383,-83.8656,27.16,65,99,2.48,CR,1680544392
376,zaysan,47.4667,84.8667,-1.79,29,0,1.42,KZ,1680544392
377,dzhebariki-khaya,62.2167,135.8,-12.31,91,100,0.57,RU,1680544393
378,beringovskiy,63.05,179.3167,-15.15,94,94,5.92,RU,1680544393
379,rocha,-34.4833,-54.3333,17.22,84,97,1.46,UY,1680544247
380,vakhtan,57.9659,46.6889,4.62,95,100,2.65,RU,1680544393
381,zhezkazgan,47.8043,67.7144,7.7,36,22,8.39,KZ,1680544394
382,norrtalje,59.758,18.705,2.1,87,10,1.4,SE,1680544394
383,nambiyur,11.3667,77.3333,27.77,68,67,1.45,IN,1680544394
384,kainantu,-6.2887,145.8655,15.64,97,100,0.54,PG,1680544394
385,tuatapere,-46.1333,167.6833,9.96,90,58,1.76,NZ,1680544394
386,vacszentlaszlo,47.574,19.5377,7.36,62,84,5.58,HU,1680544394
387,skelleftea,64.7507,20.9528,-1.67,69,0,2.57,SE,1680544395
388,hualmay,-11.0964,-77.6139,27.35,69,83,4.11,PE,1680544395
389,am timan,11.0297,20.2827,33.73,11,63,1.88,TD,1680544395
390,goure,13.9835,10.2704,29.21,6,94,2.91,NE,1680544396
391,bantry,51.6833,-9.45,9.88,92,100,5.23,IE,1680544396
392,altay,47.8667,88.1167,-5.94,42,0,3.28,CN,1680544397
393,kapustin yar,48.5831,45.7372,13.17,47,100,3.69,RU,1680544397
394,teahupoo,-17.8333,-149.2667,24.98,73,70,0.89,PF,1680544397
395,roma,43.2128,-75.4557,16.57,37,68,6.56,US,1680544398
396,tura,25.5198,90.2201,20.63,70,79,2.85,IN,1680544398
397,cotonou,6.3654,2.4183,29.99,74,40,6.17,BJ,1680544236
398,dodola,6.9833,39.1833,12.8,87,100,0.19,ET,1680544399
399,winneba,5.3511,-0.6231,28.24,76,81,5.97,GH,1680544399
400,thiruvananthapuram,8.4833,76.9167,28.99,74,40,2.57,IN,1680544215
401,brejo santo,-7.4933,-38.9872,27.13,34,94,2.37,BR,1680544400
402,egvekinot,66.3167,-179.1667,-26.79,90,75,4.25,RU,1680544401
403,dunedin,-45.8742,170.5036,12.67,73,96,2.15,NZ,1680544248
404,iztapa,13.9333,-90.7075,31.79,52,41,5.25,GT,1680544401
405,kysyl-syr,63.8986,122.7617,-11.4,98,100,0.69,RU,1680544401
406,talaya,61.3833,152.75,-28.54,94,68,1.75,RU,1680544401
407,kahului,20.8947,-156.47,23.8,83,40,8.49,US,1680544401
408,doha,25.2867,51.5333,20.99,50,0,7.72,QA,1680544402
409,dingle,10.9995,122.6711,24.32,86,100,2.81,PH,1680544402
410,pangnirtung,66.1451,-65.7125,-17.0,78,20,4.12,CA,1680544402
411,bay roberts,47.5999,-53.2648,1.75,70,25,8.05,CA,1680544244
412,buala,-8.145,159.5921,26.56,83,72,3.08,SB,1680544402
413,santa cruz,-17.8,-63.1667,31.03,62,75,7.2,BO,1680544230
414,copiapo,-27.3667,-70.3333,20.83,41,0,4.37,CL,1680544402
415,ati,13.2154,18.3353,33.0,17,31,3.56,TD,1680544403
416,santa marta,11.2408,-74.199,33.03,58,20,3.09,CO,1680544314
417,green river,41.5286,-109.4662,0.55,57,100,2.24,US,1680544403
418,chapais,49.7834,-74.8492,-2.12,98,100,3.88,CA,1680544403
419,san jose,37.3394,-121.895,12.78,47,20,8.75,US,1680544318
420,urubicha,-15.3833,-62.95,30.06,57,42,2.04,BO,1680544404
421,pechenga,69.5259,31.1703,-2.81,81,98,11.56,RU,1680544404
422,mangan,27.5167,88.5333,16.45,83,97,1.58,IN,1680544404
423,port lincoln,-34.7333,135.8667,17.7,71,2,2.66,AU,1680544404
424,izumo,35.3667,132.7667,6.97,67,34,3.61,JP,1680544405
425,benjamin constant,-4.3831,-70.0311,30.07,70,40,2.06,BR,1680544405
426,eyl,7.9803,49.8164,28.1,70,15,6.27,SO,1680544405
427,nabire,-3.3667,135.4833,24.53,91,100,1.49,ID,1680544405
428,haines junction,60.7522,-137.5108,-11.03,67,39,1.03,CA,1680544405
429,orange,33.7,-117.7675,15.49,77,100,3.6,US,1680544166
430,atherton,53.5237,-2.4935,11.9,58,8,1.79,GB,1680544406
431,qujing,25.4833,103.7833,14.56,39,4,9.01,CN,1680544406
432,narrabri,-30.3167,149.7833,16.4,82,35,0.45,AU,1680544406
433,comodoro rivadavia,-45.8667,-67.5,19.92,28,0,9.26,AR,1680544406
434,karratha,-20.7377,116.8463,28.11,74,10,4.62,AU,1680544407
435,tauranga,-37.6861,176.1667,12.7,86,5,1.34,NZ,1680544360
436,sumter,28.7086,-82.0831,31.16,43,99,4.58,US,1680544377
437,liloy,8.1144,122.6594,25.35,86,67,2.9,PH,1680544407
438,innisfail,-17.5333,146.0333,22.32,91,80,1.39,AU,1680544407
439,morgantown,39.6295,-79.9559,22.34,34,0,4.63,US,1680544407
440,mao,39.8885,4.2658,13.31,62,20,7.2,ES,1680544319
441,flin flon,54.7682,-101.865,-13.09,47,20,1.03,CA,1680544408
442,mwaya,-9.55,33.95,22.92,87,69,0.61,TZ,1680544408
443,sri aman,1.2376,111.4621,23.03,100,100,0.51,MY,1680544408
444,dungarpur,23.8333,73.7167,26.75,30,2,3.62,IN,1680544408
445,imbituba,-28.24,-48.6703,28.81,60,2,6.46,BR,1680544408
446,lavrentiya,65.5833,-171.0,-15.74,96,100,3.11,RU,1680544408
447,den helder,52.9599,4.7593,7.99,48,75,7.15,NL,1680544409
448,dubti,11.7361,41.0853,31.94,48,46,3.05,ET,1680544409
449,christchurch,-43.5333,172.6333,7.75,91,100,1.03,NZ,1680544327
450,miramar,25.9873,-80.2323,31.67,59,0,5.66,US,1680544409
451,rincon,32.296,-81.2354,23.98,51,100,4.12,US,1680544409
452,bilma,18.6853,12.9164,29.17,5,99,3.3,NE,1680544410
453,byron bay,-28.65,153.6167,18.17,94,71,5.17,AU,1680544410
454,mizdah,31.4451,12.9801,15.39,26,1,7.0,LY,1680544410
455,barsovo,61.1667,73.1667,-0.93,90,100,3.96,RU,1680544410
456,flinders,-34.5833,150.8552,17.99,84,22,0.89,AU,1680544410
457,ust-tsilma,65.441,52.1498,-15.59,99,34,1.31,RU,1680544411
458,el reten,10.6114,-74.2682,35.68,54,4,5.08,CO,1680544411
459,narasannapeta,18.4167,84.05,26.85,86,25,3.57,IN,1680544411
460,aykhal,66.0,111.5,-5.86,93,100,7.26,RU,1680544411
461,oga,46.4631,10.347,4.38,87,26,3.33,IT,1680544412
462,fortuna,40.5982,-124.1573,7.74,84,82,0.45,US,1680544412
463,dedougou,12.4667,-3.4667,37.04,6,26,3.75,BF,1680544412
464,nhulunbuy,-12.2333,136.7667,26.34,94,40,0.0,AU,1680544412
465,kazerun,29.6195,51.6541,14.09,44,0,2.21,IR,1680544412
466,charlestown,-32.95,151.6667,18.74,90,72,0.45,AU,1680544211
467,warwick,41.7001,-71.4162,12.16,54,20,9.26,US,1680543939
468,villiers,-27.0303,28.6006,15.9,64,76,2.51,ZA,1680544413
469,morant bay,17.8815,-76.4093,29.28,68,25,6.11,JM,1680544165
470,udachnyy,66.4167,112.4,-3.64,85,100,8.6,RU,1680544413
471,asau,46.4333,26.4,4.6,93,100,2.22,RO,1680544218
472,urgut,39.4022,67.2431,6.79,86,93,0.63,UZ,1680544414
473,yamada,39.4667,141.95,5.22,66,0,1.8,JP,1680544414
474,matay,28.419,30.7792,24.18,12,0,3.5,EG,1680544414
475,srednekolymsk,67.45,153.6833,-27.38,98,44,1.87,RU,1680544414
476,husavik,66.0449,-17.3389,3.6,97,100,4.44,IS,1680544414
477,tautira,-17.7333,-149.15,27.55,72,73,1.14,PF,1680544414
478,kenai,60.5544,-151.2583,-2.7,87,75,4.12,US,1680544414
479,hammerfest,70.6634,23.6821,1.25,69,40,5.14,NO,1680544415
480,setermoen,68.861,18.3486,3.95,72,100,2.24,NO,1680544415
481,nicoya,10.1483,-85.452,35.34,36,78,4.49,CR,1680544415
482,sydney,-33.8679,151.2073,16.61,87,75,3.09,AU,1680543660
483,itaituba,-4.2761,-55.9836,32.09,58,40,4.12,BR,1680544416
484,maceio,-9.6658,-35.7353,31.69,58,40,5.66,BR,1680544068
485,muros,42.7762,-9.0603,16.16,73,100,2.43,ES,1680544417
486,zwedru,6.0667,-8.1281,27.27,75,88,0.83,LR,1680544417
487,wanning,18.8003,110.3967,24.84,92,6,5.54,CN,1680544417
488,tuy hoa,13.0833,109.3,24.26,92,52,2.7,VN,1680544417
489,prado,-17.3411,-39.2208,25.96,81,76,4.62,BR,1680544417
490,mount pleasant,32.7941,-79.8626,23.08,77,0,4.12,US,1680544170
491,freeport,40.6576,-73.5832,14.42,57,0,7.72,US,1680543958
492,dalianwan,39.0286,121.695,11.02,46,0,1.0,CN,1680544418
493,castelo do piaui,-5.3222,-41.5525,28.12,75,64,1.2,BR,1680544418
494,moyale,3.5167,39.0584,22.43,72,100,1.18,KE,1680544418
495,evanston,42.0411,-87.6901,16.51,26,75,4.12,US,1680544295
496,asosa,10.0667,34.5333,23.45,15,6,2.49,ET,1680544418
497,areosa,41.7178,-8.8571,14.59,73,100,3.59,PT,1680544418
498,shasta lake,40.6804,-122.3708,10.53,33,2,0.45,US,1680544418
499,fengzhen,40.4394,113.1536,2.05,93,100,3.85,CN,1680544419
500,sohag,26.557,31.6948,28.16,10,80,2.29,EG,1680544259
501,northam,51.0333,-4.2167,11.88,71,9,5.02,GB,1680543946
502,kagalnitskaya,46.8806,40.1466,9.96,88,39,3.57,RU,1680544419
503,ketchikan,55.3422,-131.6461,4.26,81,75,2.06,US,1680544419
504,roebourne,-20.7833,117.1333,28.13,73,10,5.07,AU,1680544419
505,cuamba,-14.8031,36.5372,20.31,89,42,1.02,MZ,1680544420
506,la ronge,55.1001,-105.2842,-10.86,40,75,4.63,CA,1680544420
507,sunrise manor,36.2111,-115.0731,17.3,30,20,10.8,US,1680544420
508,baykit,61.67,96.37,-7.27,92,90,2.36,RU,1680544421
509,gravdal,68.1214,13.5031,3.94,75,75,5.14,NO,1680544421
510,sonoita,31.85,-112.8333,22.28,19,0,8.09,MX,1680544421
511,basoko,1.2391,23.616,22.5,94,67,3.4,CD,1680544421
512,iquitos,-3.7481,-73.2472,26.02,94,75,4.63,PE,1680544421
513,korla,41.7597,86.1469,1.01,26,64,4.39,CN,1680544421
514,acapulco,16.8634,-99.8901,30.46,49,62,4.59,MX,1680544135
515,zhigansk,66.7697,123.3711,-9.82,95,99,6.0,RU,1680544422
516,labytnangi,66.6572,66.4183,-23.15,89,12,2.54,RU,1680544320
517,faranah,10.0404,-10.7434,36.35,17,28,1.76,GN,1680544422
518,nola,40.922,14.5329,13.92,86,93,5.21,IT,1680544422
519,timiryazevskiy,56.49,84.8769,2.19,60,100,3.02,RU,1680544422
520,wuzhou,23.4833,111.3167,21.56,92,9,2.03,CN,1680544423
521,aras,42.5617,-2.356,13.23,41,0,2.06,ES,1680544423
522,sobolevo,54.4299,31.8996,0.31,97,100,4.13,RU,1680544423
523,barber,12.2833,-69.0667,29.99,58,20,7.2,CW,1680544423
524,galveston,29.3669,-94.9669,30.59,79,75,7.72,US,1680544215
525,stokmarknes,68.5646,14.9108,3.99,75,75,7.72,NO,1680544423
526,woodbridge,40.5576,-74.2846,18.41,43,0,6.17,US,1680544270
527,bathsheba,13.2167,-59.5167,30.34,58,20,8.23,BB,1680544424
528,ternate,0.8,127.4,26.8,80,81,2.77,ID,1680544289
529,kahama,-3.8333,32.6,18.17,94,99,0.99,TZ,1680544424
530,las vegas,36.175,-115.1372,16.69,33,0,10.8,US,1680543717
531,chara,56.9064,118.2631,-12.97,81,97,1.81,RU,1680544425
532,erenhot,43.6475,111.9767,0.38,37,100,6.28,CN,1680544425
533,kiruna,67.8557,20.2251,-2.49,54,40,7.2,SE,1680544425
534,dryden,49.7833,-92.7503,-6.84,68,75,5.66,CA,1680544425
535,kavaratti,10.5669,72.642,28.27,67,26,4.87,IN,1680544425
536,novyy urengoy,66.0833,76.6333,-24.82,97,61,4.03,RU,1680544426
537,ahipara,-35.1667,173.1667,15.99,67,29,4.95,NZ,1680544426
538,richards bay,-28.783,32.0377,24.39,81,35,6.92,ZA,1680544426
539,puerto baquerizo moreno,-0.9,-89.6,29.55,74,40,3.09,EC,1680544363
540,kyaukse,21.6,96.1333,27.71,36,25,1.58,MM,1680544426
541,ekhabi,53.5102,142.9671,-0.95,93,100,8.56,RU,1680544426
542,moree,-29.4667,149.85,17.58,72,14,3.98,AU,1680544268
543,college,64.8569,-147.8028,-7.66,84,40,1.54,US,1680544427
544,port-gentil,-0.7193,8.7815,27.2,80,82,3.68,GA,1680544041
545,beipiao,41.7919,120.7792,7.07,30,100,6.84,CN,1680544427
546,grindavik,63.8424,-22.4338,9.26,93,75,14.4,IS,1680544427
547,sladkovo,55.5284,70.3385,-0.25,85,3,2.29,RU,1680544428
548,puerto montt,-41.4698,-72.9447,17.46,48,0,2.06,CL,1680544220
549,gayeri,12.6497,0.4931,35.36,7,99,2.48,BF,1680544428
550,puerto lempira,15.2667,-83.7667,29.08,74,75,5.14,HN,1680544428
551,swan hill,-35.3378,143.5544,15.91,49,11,2.46,AU,1680544428
552,strichen,57.5892,-2.087,7.62,82,57,8.9,GB,1680544428
553,arman,59.7,150.1667,-17.43,86,8,3.12,RU,1680544428
554,vostok,46.4856,135.8833,4.03,85,100,2.24,RU,1680544263
555,ancud,-41.8697,-73.8203,14.23,62,1,2.75,CL,1680544429
556,savonlinna,61.8699,28.88,-0.97,47,0,3.6,FI,1680544429
557,moustheni,40.8667,24.1167,11.96,88,100,10.99,GR,1680544429
558,okhotsk,59.3833,143.3,-16.71,93,63,1.68,RU,1680544244
559,general salgado,-20.6483,-50.3606,28.93,49,0,1.28,BR,1680544429
560,raglan,-37.8,174.8833,11.91,88,6,2.61,NZ,1680544430
561,taoudenni,22.6783,-3.9836,34.04,5,0,0.17,ML,1680544430
562,bonfim,3.0833,-59.95,36.52,26,61,3.64,BR,1680544430
563,anahawan,10.3429,124.8782,22.6,84,85,1.43,PH,1680544430
564,juneau,58.3019,-134.4197,3.01,94,20,0.0,US,1680544163
565,adeje,28.1227,-16.726,22.83,75,20,3.09,ES,1680544430
566,beloha,-25.1667,45.05,23.06,86,36,6.47,MG,1680544267
567,tabuk,17.4189,121.4443,22.88,88,87,1.35,PH,1680544431
568,kiknur,57.3034,47.2011,4.98,95,100,3.56,RU,1680544431
569,penzance,50.1186,-5.5371,9.38,75,59,8.22,GB,1680544431
570,mhlume,-26.0333,31.85,27.57,56,60,2.31,SZ,1680544432
571,lugoba,-6.45,38.3333,22.87,95,88,1.28,TZ,1680544432
